stop_id,stop_code,stop_name,stop_desc,stop_lat,stop_lon,location_type,parent_station
2238,,"La Défense (Grande Arche)","Parvis - 92062",48.89200565400341,2.2369831238174327,0,
1831,,"Nanterre-Ville","Maurice Thorez (rue, intersection avec le boulevard du Couchant) - 92050",48.89532514729429,2.1958404738707524,0,
1830,,"Nanterre-Université","Provinces Franµaises (boulevard des) - 92050",48.90145806746532,2.215467319236829,0,
1835,,"Nation","Nation (terre-plein face au 3 place de la) - 75112",48.8484803444062,2.39676520957729,0,
2490,,"Sucy Bonneuil","Parking municipal de la Gare - 94071",48.77105153303763,2.507511268345535,0,
2370,,"Nanterre-Ville","Maurice Thorez (rue, intersection avec le boulevard du Couchant) - 92050",48.89532514729429,2.1958404738707524,0,
2545,,"Charles de Gaulle-Etoile","Grande Armée (2 avenue de la) - 75117",48.87416474488983,2.29507256293689,0,
2131,,"Bussy-Saint-Georges","Gare (Rocade de la) - 77058",48.83665082820275,2.709854058543625,0,
2480,,"Saint-Germain-en-Laye","Surintendance (3 rue de la) - 78551",48.89830860836054,2.09511210577148,0,
1838,,"Nogent-sur-Marne","Sortie Parc Auto - 94052",48.83510877417377,2.4716839161590887,0,
2481,,"Saint-Maur Créteil","Marché (place du, parvis de la gare et 35 rue du Pont de Créteil) - 94068",48.80641960896216,2.47204505094563,0,
1839,,"Noisiel","Jean-Paul Sartre (allée, centre quartier du Luzard) - 77337",48.84348503430221,2.616614613852153,0,
1967,,"Châtelet-Les Halles","Rue Berger - 75101",48.86146371055862,2.346844131603014,0,
1837,,"Neuilly-Plaisance","Gallieni (boulevard, côté pair) - 93049",48.85346032384484,2.5137606489199347,0,
1671,,"Saint-Maur Créteil","Marché (place du, parvis de la gare et 35 rue du Pont de Créteil) - 94068",48.80641960896216,2.47204505094563,0,
1670,,"Saint-Germain-en-Laye","Surintendance (3 rue de la) - 78551",48.89830860836054,2.09511210577148,0,
1636,,"Torcy","Croissy (route de, quartier du Val Maubuée) - 77468",48.83972842272958,2.655903115145281,0,
2053,,"Auber","Mathurins (5/7 rue des) - 75109",48.87260817994105,2.3297068164482293,0,
2532,,"Noisy-le-Grand (Mont d'Est)","Esplanade des Arcades - 93051",48.840882627372274,2.549350971449035,0,
1631,,"Vincennes","Aubert (5 avenue) - 94080",48.84732387116057,2.433531596877892,0,
2340,,"Poissy","George Pompidou (Place) - 78498",48.933164262405,2.041083510970564,0,
2244,,"La Varenne-Chennevières","Pierre Semard (2 avenue) - 94068",48.79493354483859,2.5130447577249475,0,
2300,,"Joinville-le-Pont","Jean Jaurès (rue) - 94042",48.821069678359656,2.4638349563053548,0,
2143,,"Champigny","La Fayette (rue) - 94068",48.80703580209233,2.509901668386353,0,
1970,,"Chatou-Croissy","Paul Flament (3 rue) - 78146",48.885142071685785,2.155625867018615,0,
2140,,"Cergy-Préfecture","Boulevard de l'Oise - 95127",49.03594383494343,2.0801437572429307,0,
2141,,"Cergy-Saint-Christophe","Rue des Pas Perdus - 95127",49.04954211817629,2.0350436480345913,0,
2307,,"Noisy-Champs","Ru de Nesles (boulevard du) - 93051",48.8426611070816,2.578252451182644,0,
2198,,"Fontenay-sous-Bois","Moreau David (place) - 94033",48.8434118592224,2.464815403274336,0,
2306,,"Noisiel","Jean-Paul Sartre (allée, centre quartier du Luzard) - 77337",48.84348503430221,2.616614613852153,0,
1878,,"Maisons-Laffitte","Liberation (Place de la) - 78358",48.94604723230418,2.144251676642267,0,
2102,,"Auber","Mathurins (5/7 rue des) - 75109",48.87260817994105,2.3297068164482293,0,
2305,,"Nogent-sur-Marne","Sortie Parc Auto - 94052",48.83510877417377,2.4716839161590887,0,
2158,,"Achères-Ville","Avenue de Conflans - 78005",48.970077176304514,2.0776181820083806,0,
2304,,"Neuilly-Plaisance","Gallieni (boulevard, côté pair) - 93049",48.85346032384484,2.5137606489199347,0,
1829,,"Nanterre-Préfecture","Pesaro (boulevard de) - 92050",48.89565993203451,2.2231003280556174,0,
2302,,"Nation","Nation (terre-plein face au 3 place de la) - 75112",48.8484803444062,2.39676520957729,0,
2211,,"Gare de Lyon","Place Louis Armand - 75112",48.844804715128525,2.3738435712712422,0,
2315,,"Le Parc de Saint-Maur","Louvière (place de la) - 94068",48.80528001222769,2.48559432484478,0,
2290,,"Houilles Carrières-sur-Seine","Quatre septembre (1 rue du) - 78311",48.920645595306866,2.1844117553489246,0,
161469,,"Val d'europe","Cours de l'escaut - 77449",48.85549704826123,2.7736084332189748,0,
161468,,"Val d'europe","Cours de l'escaut - 77449",48.85549704826123,2.7736084332189748,0,
2318,,"Le Vésinet-Le Pecq","Georges Bizet (avenue) - 78650",48.89835089406469,2.121828925443024,0,
48429,,"Cergy-Le-Haut","Gare de Cergy-Le-haut - 95127",49.048547258734644,2.0120551690790514,0,
1851,,"Le Vésinet-Le Pecq","Georges Bizet (avenue) - 78650",48.89835089406469,2.121828925443024,0,
2317,,"Le Vésinet-Centre","Maurice Berteaux (rue) - 78650",48.89009570633796,2.1343746143232596,0,
1850,,"Le Vésinet-Centre","Maurice Berteaux (rue) - 78650",48.89009570633796,2.1343746143232596,0,
2084,,"Charles de Gaulle-Etoile","Grande Armée (2 avenue de la) - 75117",48.87416474488983,2.29507256293689,0,
1689,,"Val de Fontenay","ZUP de Fontenay - 94033",48.854043248483144,2.488553014023377,0,
2771311,,"Acheres Grand Cormier","Gare (Place de la) - 78005",48.95518178055726,2.0925262190765865,0,
2523,,"Sartrouville","Fusilles (Place des) - 78586",48.93751218318358,2.157311047020583,0,
1680,,"Sucy Bonneuil","Parking municipal de la Gare - 94071",48.77105153303763,2.507511268345535,0,
1643,,"Sartrouville","Fusilles (Place des) - 78586",48.93751218318358,2.157311047020583,0,
1904,,"Joinville-le-Pont","Jean Jaurès (rue) - 94042",48.821069678359656,2.4638349563053548,0,
1713,,"Rueil-Malmaison","Gare routière - 92063",48.88722206053287,2.170623204930391,0,
1885,,"Marne-la-Vallée Chessy","Lieu-dit Le Galmy - 77111",48.86849697024026,2.7822597305629526,0,
2012,,"Bussy-Saint-Georges","Gare (Rocade de la) - 77058",48.83665082820275,2.709854058543625,0,
2010,,"Bry-sur-Marne","Gallieni (boulevard) - 94015",48.84442645483315,2.5263936672560128,0,
1943,,"Fontenay-sous-Bois","Moreau David (place) - 94033",48.8434118592224,2.464815403274336,0,
1859,,"Lognes","Johan Scarron (rue, quartier du Mandinet Lognes) - 77258",48.83907532767992,2.6338690555739257,0,
2281,,"Marne-la-Vallée Chessy","Lieu-dit Le Galmy - 77111",48.86849697024026,2.7822597305629526,0,
2222,,"Châtelet-Les Halles","Rue Berger - 75101",48.86146371055862,2.346844131603014,0,
2326,,"Lognes","Johan Scarron (rue, quartier du Mandinet Lognes) - 77258",48.83907532767992,2.6338690555739257,0,
1840,,"Noisy-Champs","Ru de Nesles (boulevard du) - 93051",48.8426611070816,2.578252451182644,0,
2074,,"Boissy-Saint-Léger","Magasin Ballye - 94004",48.752988644666615,2.5052228459567494,0,
1983,,"Conflans-Fin d'Oise","Clemenceau (Place) - 78172",48.98941774049155,2.074189247151442,0,
2039,,"Achères-Ville","Avenue de Conflans - 78005",48.970077176304514,2.0776181820083806,0,
2368,,"Nanterre-Préfecture","Pesaro (boulevard de) - 92050",48.89565993203451,2.2231003280556174,0,
1652,,"Noisy-le-Grand (Mont d'Est)","Esplanade des Arcades - 93051",48.840882627372274,2.549350971449035,0,
2511,,"Vincennes","Aubert (5 avenue) - 94080",48.84732387116057,2.433531596877892,0,
1913,,"La Défense (Grande Arche)","Parvis - 92062",48.89200565400341,2.2369831238174327,0,
1801,,"Poissy","George Pompidou (Place) - 78498",48.933164262405,2.041083510970564,0,
2369,,"Nanterre-Université","Provinces Franµaises (boulevard des) - 92050",48.90145806746532,2.215467319236829,0,
1919,,"La Varenne-Chennevières","Pierre Semard (2 avenue) - 94068",48.79493354483859,2.5130447577249475,0,
2776542,,"Acheres Grand Cormier","Gare (Place de la) - 78005",48.95518178055726,2.0925262190765865,0,
2225,,"Chatou-Croissy","Paul Flament (3 rue) - 78146",48.885142071685785,2.155625867018615,0,
2516,,"Torcy","Croissy (route de, quartier du Val Maubuée) - 77468",48.83972842272958,2.655903115145281,0,
48430,,"Cergy-Le-Haut","Gare de Cergy-Le-haut - 95127",49.048547258734644,2.0120551690790514,0,
2173,,"Conflans-Fin d'Oise","Clemenceau (Place) - 78172",48.98941774049155,2.074189247151442,0,
2499,,"Val de Fontenay","ZUP de Fontenay - 94033",48.854043248483144,2.488553014023377,0,
2123,,"Boissy-Saint-Léger","Magasin Ballye - 94004",48.752988644666615,2.5052228459567494,0,
1894,,"Houilles Carrières-sur-Seine","Quatre septembre (1 rue du) - 78311",48.920645595306866,2.1844117553489246,0,
2022,,"Cergy-Saint-Christophe","Rue des Pas Perdus - 95127",49.04954211817629,2.0350436480345913,0,
2024,,"Champigny","La Fayette (rue) - 94068",48.80703580209233,2.509901668386353,0,
48434,,"Neuville-Université","Gare de Neuville-Universite - 95450",49.014337292933675,2.0784342019585837,0,
2458,,"Rueil-Malmaison","Gare routière - 92063",48.88722206053287,2.170623204930391,0,
2129,,"Bry-sur-Marne","Gallieni (boulevard) - 94015",48.84442645483315,2.5263936672560128,0,
1956,,"Gare de Lyon","Place Louis Armand - 75112",48.844804715128525,2.3738435712712422,0,
1848,,"Le Parc de Saint-Maur","Louvière (place de la) - 94068",48.80528001222769,2.48559432484478,0,
48433,,"Neuville-Université","Gare de Neuville-Universite - 95450",49.014337292933675,2.0784342019585837,0,
2021,,"Cergy-Préfecture","Boulevard de l'Oise - 95127",49.03594383494343,2.0801437572429307,0,
2274,,"Maisons-Laffitte","Liberation (Place de la) - 78358",48.94604723230418,2.144251676642267,0,
